$GPGGA,094235.013,5926.733,N,02444.778,E,1,12,1.0,0.0,M,0.0,M,,*64
$GPGSA,A,3,01,02,03,04,05,06,07,08,09,10,11,12,1.0,1.0,1.0*30
$GPRMC,094235.013,A,5926.733,N,02444.778,E,289.8,123.3,210719,000.0,W*74
$GPGGA,094236.013,5926.669,N,02444.875,E,1,12,1.0,0.0,M,0.0,M,,*6B
$GPGSA,A,3,01,02,03,04,05,06,07,08,09,10,11,12,1.0,1.0,1.0*30
$GPRMC,094236.013,A,5926.669,N,02444.875,E,060.4,203.3,210719,000.0,W*73
$GPGGA,094237.013,5926.653,N,02444.868,E,1,12,1.0,0.0,M,0.0,M,,*6F
$GPGSA,A,3,01,02,03,04,05,06,07,08,09,10,11,12,1.0,1.0,1.0*30
$GPRMC,094237.013,A,5926.653,N,02444.868,E,045.9,212.4,210719,000.0,W*7A
$GPGGA,094238.013,5926.641,N,02444.860,E,1,12,1.0,0.0,M,0.0,M,,*6B
$GPGSA,A,3,01,02,03,04,05,06,07,08,09,10,11,12,1.0,1.0,1.0*30
$GPRMC,094238.013,A,5926.641,N,02444.860,E,205.6,102.0,210719,000.0,W*71
$GPGGA,094239.013,5926.619,N,02444.964,E,1,12,1.0,0.0,M,0.0,M,,*62
$GPGSA,A,3,01,02,03,04,05,06,07,08,09,10,11,12,1.0,1.0,1.0*30
$GPRMC,094239.013,A,5926.619,N,02444.964,E,257.0,181.5,210719,000.0,W*77
$GPGGA,094240.013,5926.547,N,02444.962,E,1,12,1.0,0.0,M,0.0,M,,*62
$GPGSA,A,3,01,02,03,04,05,06,07,08,09,10,11,12,1.0,1.0,1.0*30
$GPRMC,094240.013,A,5926.547,N,02444.962,E,083.4,227.0,210719,000.0,W*72
$GPGGA,094241.013,5926.527,N,02444.940,E,1,12,1.0,0.0,M,0.0,M,,*65
$GPGSA,A,3,01,02,03,04,05,06,07,08,09,10,11,12,1.0,1.0,1.0*30
$GPRMC,094241.013,A,5926.527,N,02444.940,E,120.6,188.7,210719,000.0,W*7E
$GPGGA,094242.013,5926.494,N,02444.935,E,1,12,1.0,0.0,M,0.0,M,,*6D
$GPGSA,A,3,01,02,03,04,05,06,07,08,09,10,11,12,1.0,1.0,1.0*30
$GPRMC,094242.013,A,5926.494,N,02444.935,E,078.1,227.2,210719,000.0,W*7E
$GPGGA,094243.013,5926.475,N,02444.914,E,1,12,1.0,0.0,M,0.0,M,,*60
$GPGSA,A,3,01,02,03,04,05,06,07,08,09,10,11,12,1.0,1.0,1.0*30
$GPRMC,094243.013,A,5926.475,N,02444.914,E,143.5,222.8,210719,000.0,W*71
$GPGGA,094244.013,5926.439,N,02444.881,E,1,12,1.0,0.0,M,0.0,M,,*62
$GPGSA,A,3,01,02,03,04,05,06,07,08,09,10,11,12,1.0,1.0,1.0*30
$GPRMC,094244.013,A,5926.439,N,02444.881,E,178.4,221.3,210719,000.0,W*72
$GPGGA,094245.013,5926.394,N,02444.841,E,1,12,1.0,0.0,M,0.0,M,,*6F
$GPGSA,A,3,01,02,03,04,05,06,07,08,09,10,11,12,1.0,1.0,1.0*30
$GPRMC,094245.013,A,5926.394,N,02444.841,E,072.8,222.2,210719,000.0,W*7A
$GPGGA,094246.013,5926.375,N,02444.824,E,1,12,1.0,0.0,M,0.0,M,,*60
$GPGSA,A,3,01,02,03,04,05,06,07,08,09,10,11,12,1.0,1.0,1.0*30
$GPRMC,094246.013,A,5926.375,N,02444.824,E,094.7,213.8,210719,000.0,W*7A
$GPGGA,094247.013,5926.350,N,02444.807,E,1,12,1.0,0.0,M,0.0,M,,*67
$GPGSA,A,3,01,02,03,04,05,06,07,08,09,10,11,12,1.0,1.0,1.0*30
$GPRMC,094247.013,A,5926.350,N,02444.807,E,108.6,225.1,210719,000.0,W*74
$GPGGA,094248.013,5926.324,N,02444.780,E,1,12,1.0,0.0,M,0.0,M,,*6B
$GPGSA,A,3,01,02,03,04,05,06,07,08,09,10,11,12,1.0,1.0,1.0*30
$GPRMC,094248.013,A,5926.324,N,02444.780,E,115.4,246.1,210719,000.0,W*73
$GPGGA,094249.013,5926.303,N,02444.733,E,1,12,1.0,0.0,M,0.0,M,,*67
$GPGSA,A,3,01,02,03,04,05,06,07,08,09,10,11,12,1.0,1.0,1.0*30
$GPRMC,094249.013,A,5926.303,N,02444.733,E,098.1,234.1,210719,000.0,W*7B
$GPGGA,094250.013,5926.280,N,02444.702,E,1,12,1.0,0.0,M,0.0,M,,*67
$GPGSA,A,3,01,02,03,04,05,06,07,08,09,10,11,12,1.0,1.0,1.0*30
$GPRMC,094250.013,A,5926.280,N,02444.702,E,080.6,259.1,210719,000.0,W*7E
$GPGGA,094251.013,5926.272,N,02444.661,E,1,12,1.0,0.0,M,0.0,M,,*6F
$GPGSA,A,3,01,02,03,04,05,06,07,08,09,10,11,12,1.0,1.0,1.0*30
$GPRMC,094251.013,A,5926.272,N,02444.661,E,088.0,259.2,210719,000.0,W*7B
$GPGGA,094252.013,5926.264,N,02444.616,E,1,12,1.0,0.0,M,0.0,M,,*6B
$GPGSA,A,3,01,02,03,04,05,06,07,08,09,10,11,12,1.0,1.0,1.0*30
$GPRMC,094252.013,A,5926.264,N,02444.616,E,047.7,265.6,210719,000.0,W*70
$GPGGA,094253.013,5926.262,N,02444.590,E,1,12,1.0,0.0,M,0.0,M,,*61
$GPGSA,A,3,01,02,03,04,05,06,07,08,09,10,11,12,1.0,1.0,1.0*30
$GPRMC,094253.013,A,5926.262,N,02444.590,E,061.5,188.6,210719,000.0,W*7C
$GPGGA,094254.013,5926.245,N,02444.587,E,1,12,1.0,0.0,M,0.0,M,,*65
$GPGSA,A,3,01,02,03,04,05,06,07,08,09,10,11,12,1.0,1.0,1.0*30
$GPRMC,094254.013,A,5926.245,N,02444.587,E,074.6,213.1,210719,000.0,W*79
$GPGGA,094255.013,5926.225,N,02444.574,E,1,12,1.0,0.0,M,0.0,M,,*6E
$GPGSA,A,3,01,02,03,04,05,06,07,08,09,10,11,12,1.0,1.0,1.0*30
$GPRMC,094255.013,A,5926.225,N,02444.574,E,051.0,232.5,210719,000.0,W*74
$GPGGA,094256.013,5926.214,N,02444.559,E,1,12,1.0,0.0,M,0.0,M,,*60
$GPGSA,A,3,01,02,03,04,05,06,07,08,09,10,11,12,1.0,1.0,1.0*30
$GPRMC,094256.013,A,5926.214,N,02444.559,E,024.3,227.4,210719,000.0,W*7E
$GPGGA,094257.013,5926.208,N,02444.552,E,1,12,1.0,0.0,M,0.0,M,,*67
$GPGSA,A,3,01,02,03,04,05,06,07,08,09,10,11,12,1.0,1.0,1.0*30
$GPRMC,094257.013,A,5926.208,N,02444.552,E,037.7,090.0,210719,000.0,W*75
$GPGGA,094258.013,5926.208,N,02444.573,E,1,12,1.0,0.0,M,0.0,M,,*6B
$GPGSA,A,3,01,02,03,04,05,06,07,08,09,10,11,12,1.0,1.0,1.0*30
$GPRMC,094258.013,A,5926.208,N,02444.573,E,037.7,090.0,210719,000.0,W*79
