$GPGGA,132844.233,3922.097,S,08917.813,W,1,12,1.0,0.0,M,0.0,M,,*62
$GPGSA,A,3,01,02,03,04,05,06,07,08,09,10,11,12,1.0,1.0,1.0*30
$GPRMC,132844.233,A,3922.097,S,08917.813,W,5107478.4,270.9,220719,000.0,W*79
$GPGGA,132845.233,3849.355,S,11952.969,W,1,12,1.0,0.0,M,0.0,M,,*67
$GPGSA,A,3,01,02,03,04,05,06,07,08,09,10,11,12,1.0,1.0,1.0*30
$GPRMC,132845.233,A,3849.355,S,11952.969,W,8626525.4,276.1,220719,000.0,W*72
$GPGGA,132846.233,3325.886,S,16927.188,W,1,12,1.0,0.0,M,0.0,M,,*62
$GPGSA,A,3,01,02,03,04,05,06,07,08,09,10,11,12,1.0,1.0,1.0*30
$GPRMC,132846.233,A,3325.886,S,16927.188,W,2071558.8,089.9,220719,000.0,W*75
$GPGGA,132847.233,2547.993,S,19713.594,E,1,12,1.0,0.0,M,0.0,M,,*78
$GPGSA,A,3,01,02,03,04,05,06,07,08,09,10,11,12,1.0,1.0,1.0*30
$GPRMC,132847.233,A,2547.993,S,19713.594,E,12210640.0,259.2,220719,000.0,W*5D
$GPGGA,132848.233,3816.361,S,13046.875,E,1,12,1.0,0.0,M,0.0,M,,*77
$GPGSA,A,3,01,02,03,04,05,06,07,08,09,10,11,12,1.0,1.0,1.0*30
$GPRMC,132848.233,A,3816.361,S,13046.875,E,11836662.6,273.3,220719,000.0,W*50
$GPGGA,132849.233,1617.943,S,17133.750,W,1,12,1.0,0.0,M,0.0,M,,*6C
$GPGSA,A,3,01,02,03,04,05,06,07,08,09,10,11,12,1.0,1.0,1.0*30
$GPRMC,132849.233,A,1617.943,S,17133.750,W,6835586.5,298.4,220719,000.0,W*76
$GPGGA,132850.233,0103.278,S,19941.250,W,1,12,1.0,0.0,M,0.0,M,,*62
$GPGSA,A,3,01,02,03,04,05,06,07,08,09,10,11,12,1.0,1.0,1.0*30
$GPRMC,132850.233,A,0103.278,S,19941.250,W,22949412.5,075.6,220719,000.0,W*4B
$GPGGA,132851.233,2625.874,N,09206.563,W,1,12,1.0,0.0,M,0.0,M,,*77
$GPGSA,A,3,01,02,03,04,05,06,07,08,09,10,11,12,1.0,1.0,1.0*30
$GPRMC,132851.233,A,2625.874,N,09206.563,W,20031665.8,119.9,220719,000.0,W*51
$GPGGA,132852.233,2057.686,S,00950.625,W,1,12,1.0,0.0,M,0.0,M,,*69
$GPGSA,A,3,01,02,03,04,05,06,07,08,09,10,11,12,1.0,1.0,1.0*30
$GPRMC,132852.233,A,2057.686,S,00950.625,W,34497206.4,079.7,220719,000.0,W*46
$GPGGA,132853.233,0906.126,N,15255.781,E,1,12,1.0,0.0,M,0.0,M,,*60
$GPGSA,A,3,01,02,03,04,05,06,07,08,09,10,11,12,1.0,1.0,1.0*30
$GPRMC,132853.233,A,0906.126,N,15255.781,E,21723608.8,084.7,220719,000.0,W*43
$GPGGA,132854.233,1838.775,N,25720.625,E,1,12,1.0,0.0,M,0.0,M,,*61
$GPGSA,A,3,01,02,03,04,05,06,07,08,09,10,11,12,1.0,1.0,1.0*30
$GPRMC,132854.233,A,1838.775,N,25720.625,E,20063106.9,277.3,220719,000.0,W*42
$GPGGA,132855.233,4702.411,N,01321.563,E,1,12,1.0,0.0,M,0.0,M,,*60
$GPGSA,A,3,01,02,03,04,05,06,07,08,09,10,11,12,1.0,1.0,1.0*30
$GPRMC,132855.233,A,4702.411,N,01321.563,E,13325981.2,279.2,220719,000.0,W*41
$GPGGA,132856.233,6917.235,N,13706.563,W,1,12,1.0,0.0,M,0.0,M,,*7B
$GPGSA,A,3,01,02,03,04,05,06,07,08,09,10,11,12,1.0,1.0,1.0*30
$GPRMC,132856.233,A,6917.235,N,13706.563,W,5363123.8,262.1,220719,000.0,W*6C
$GPGGA,132857.233,6055.826,N,19528.125,W,1,12,1.0,0.0,M,0.0,M,,*7F
$GPGSA,A,3,01,02,03,04,05,06,07,08,09,10,11,12,1.0,1.0,1.0*30
$GPRMC,132857.233,A,6055.826,N,19528.125,W,4370279.8,003.0,220719,000.0,W*63
$GPGGA,132858.233,8108.849,N,19424.844,W,1,12,1.0,0.0,M,0.0,M,,*7D
$GPGSA,A,3,01,02,03,04,05,06,07,08,09,10,11,12,1.0,1.0,1.0*30
$GPRMC,132858.233,A,8108.849,N,19424.844,W,1396194.0,088.2,220719,000.0,W*65
$GPGGA,132859.233,8215.702,N,14903.750,W,1,12,1.0,0.0,M,0.0,M,,*7C
$GPGSA,A,3,01,02,03,04,05,06,07,08,09,10,11,12,1.0,1.0,1.0*30
$GPRMC,132859.233,A,8215.702,N,14903.750,W,2959323.7,088.7,220719,000.0,W*62
$GPGGA,132900.233,8301.573,N,01157.188,W,1,12,1.0,0.0,M,0.0,M,,*7F
$GPGSA,A,3,01,02,03,04,05,06,07,08,09,10,11,12,1.0,1.0,1.0*30
$GPRMC,132900.233,A,8301.573,N,01157.188,W,2474271.3,088.5,220719,000.0,W*63
$GPGGA,132901.233,8418.131,N,11704.219,E,1,12,1.0,0.0,M,0.0,M,,*6B
$GPGSA,A,3,01,02,03,04,05,06,07,08,09,10,11,12,1.0,1.0,1.0*30
$GPRMC,132901.233,A,8418.131,N,11704.219,E,2642324.4,090.6,220719,000.0,W*7C
$GPGGA,132902.233,8124.836,N,23326.250,E,1,12,1.0,0.0,M,0.0,M,,*64
$GPGSA,A,3,01,02,03,04,05,06,07,08,09,10,11,12,1.0,1.0,1.0*30
$GPRMC,132902.233,A,8124.836,N,23326.250,E,4193411.2,160.1,220719,000.0,W*70
$GPGGA,132903.233,6206.233,N,24028.125,E,1,12,1.0,0.0,M,0.0,M,,*6C
$GPGSA,A,3,01,02,03,04,05,06,07,08,09,10,11,12,1.0,1.0,1.0*30
$GPRMC,132903.233,A,6206.233,N,24028.125,E,3578259.1,162.1,220719,000.0,W*75
$GPGGA,132904.233,4549.728,N,24544.531,E,1,12,1.0,0.0,M,0.0,M,,*64
$GPGSA,A,3,01,02,03,04,05,06,07,08,09,10,11,12,1.0,1.0,1.0*30
$GPRMC,132904.233,A,4549.728,N,24544.531,E,13497169.0,275.3,220719,000.0,W*4A
$GPGGA,132905.233,6304.492,N,00950.625,E,1,12,1.0,0.0,M,0.0,M,,*63
$GPGSA,A,3,01,02,03,04,05,06,07,08,09,10,11,12,1.0,1.0,1.0*30
$GPRMC,132905.233,A,6304.492,N,00950.625,E,2902177.9,036.8,220719,000.0,W*74
$GPGGA,132906.233,7606.048,N,01941.250,E,1,12,1.0,0.0,M,0.0,M,,*62
$GPGSA,A,3,01,02,03,04,05,06,07,08,09,10,11,12,1.0,1.0,1.0*30
$GPRMC,132906.233,A,7606.048,N,01941.250,E,4196935.3,089.9,220719,000.0,W*77
$GPGGA,132907.233,7524.531,N,10610.313,E,1,12,1.0,0.0,M,0.0,M,,*66
$GPGSA,A,3,01,02,03,04,05,06,07,08,09,10,11,12,1.0,1.0,1.0*30
$GPRMC,132907.233,A,7524.531,N,10610.313,E,3566736.7,106.8,220719,000.0,W*71
$GPGGA,132908.233,6410.086,N,14305.156,E,1,12,1.0,0.0,M,0.0,M,,*61
$GPGSA,A,3,01,02,03,04,05,06,07,08,09,10,11,12,1.0,1.0,1.0*30
$GPRMC,132908.233,A,6410.086,N,14305.156,E,2167660.4,064.6,220719,000.0,W*78
$GPGGA,132909.233,7204.435,N,15957.656,E,1,12,1.0,0.0,M,0.0,M,,*65
$GPGSA,A,3,01,02,03,04,05,06,07,08,09,10,11,12,1.0,1.0,1.0*30
$GPRMC,132909.233,A,7204.435,N,15957.656,E,3370992.5,279.3,220719,000.0,W*71
$GPGGA,132910.233,8131.096,N,09908.438,E,1,12,1.0,0.0,M,0.0,M,,*67
$GPGSA,A,3,01,02,03,04,05,06,07,08,09,10,11,12,1.0,1.0,1.0*30
$GPRMC,132910.233,A,8131.096,N,09908.438,E,4472502.6,268.6,220719,000.0,W*72
$GPGGA,132911.233,7600.966,N,03345.000,W,1,12,1.0,0.0,M,0.0,M,,*7E
$GPGSA,A,3,01,02,03,04,05,06,07,08,09,10,11,12,1.0,1.0,1.0*30
$GPRMC,132911.233,A,7600.966,N,03345.000,W,3048591.1,265.6,220719,000.0,W*61
$GPGGA,132912.233,7151.374,N,08422.500,W,1,12,1.0,0.0,M,0.0,M,,*7F
$GPGSA,A,3,01,02,03,04,05,06,07,08,09,10,11,12,1.0,1.0,1.0*30
$GPRMC,132912.233,A,7151.374,N,08422.500,W,23732.2,180.0,220719,000.0,W*68
$GPGGA,132913.233,7144.786,N,08422.500,W,1,12,1.0,0.0,M,0.0,M,,*73
$GPGSA,A,3,01,02,03,04,05,06,07,08,09,10,11,12,1.0,1.0,1.0*30
$GPRMC,132913.233,A,7144.786,N,08422.500,W,000.2,000.0,220719,000.0,W*6A
$GPGGA,132914.233,7144.786,N,08422.500,W,1,12,1.0,0.0,M,0.0,M,,*74
$GPGSA,A,3,01,02,03,04,05,06,07,08,09,10,11,12,1.0,1.0,1.0*30
$GPRMC,132914.233,A,7144.786,N,08422.500,W,2773704.0,090.5,220719,000.0,W*61
$GPGGA,132915.233,7111.265,N,04314.531,W,1,12,1.0,0.0,M,0.0,M,,*71
$GPGSA,A,3,01,02,03,04,05,06,07,08,09,10,11,12,1.0,1.0,1.0*30
$GPRMC,132915.233,A,7111.265,N,04314.531,W,000.0,000.0,220719,000.0,W*6A
$GPGGA,132916.233,7111.265,N,04314.531,W,1,12,1.0,0.0,M,0.0,M,,*72
$GPGSA,A,3,01,02,03,04,05,06,07,08,09,10,11,12,1.0,1.0,1.0*30
$GPRMC,132916.233,A,7111.265,N,04314.531,W,2085880.0,343.9,220719,000.0,W*6B
$GPGGA,132917.233,8049.013,N,04603.281,W,1,12,1.0,0.0,M,0.0,M,,*7C
$GPGSA,A,3,01,02,03,04,05,06,07,08,09,10,11,12,1.0,1.0,1.0*30
$GPRMC,132917.233,A,8049.013,N,04603.281,W,000.0,000.0,220719,000.0,W*67
$GPGGA,132918.233,8049.013,N,04603.281,W,1,12,1.0,0.0,M,0.0,M,,*73
$GPGSA,A,3,01,02,03,04,05,06,07,08,09,10,11,12,1.0,1.0,1.0*30
$GPRMC,132918.233,A,8049.013,N,04603.281,W,4007087.6,267.1,220719,000.0,W*60
$GPGGA,132919.233,7452.073,N,14244.063,W,1,12,1.0,0.0,M,0.0,M,,*7D
$GPGSA,A,3,01,02,03,04,05,06,07,08,09,10,11,12,1.0,1.0,1.0*30
$GPRMC,132919.233,A,7452.073,N,14244.063,W,000.0,000.0,220719,000.0,W*66
$GPGGA,132920.233,7452.073,N,14244.063,W,1,12,1.0,0.0,M,0.0,M,,*77
$GPGSA,A,3,01,02,03,04,05,06,07,08,09,10,11,12,1.0,1.0,1.0*30
$GPRMC,132920.233,A,7452.073,N,14244.063,W,2291544.6,268.0,220719,000.0,W*6B
$GPGGA,132921.233,7319.671,N,18145.469,W,1,12,1.0,0.0,M,0.0,M,,*7A
$GPGSA,A,3,01,02,03,04,05,06,07,08,09,10,11,12,1.0,1.0,1.0*30
$GPRMC,132921.233,A,7319.671,N,18145.469,W,000.0,000.0,220719,000.0,W*61
$GPGGA,132922.233,7319.671,N,18145.469,W,1,12,1.0,0.0,M,0.0,M,,*79
$GPGSA,A,3,01,02,03,04,05,06,07,08,09,10,11,12,1.0,1.0,1.0*30
$GPRMC,132922.233,A,7319.671,N,18145.469,W,6791167.9,128.0,220719,000.0,W*69
$GPGGA,132923.233,4604.394,N,14657.188,W,1,12,1.0,0.0,M,0.0,M,,*7E
$GPGSA,A,3,01,02,03,04,05,06,07,08,09,10,11,12,1.0,1.0,1.0*30
$GPRMC,132923.233,A,4604.394,N,14657.188,W,000.0,000.0,220719,000.0,W*65
$GPGGA,132924.233,4604.394,N,14657.188,W,1,12,1.0,0.0,M,0.0,M,,*79
$GPGSA,A,3,01,02,03,04,05,06,07,08,09,10,11,12,1.0,1.0,1.0*30
$GPRMC,132924.233,A,4604.394,N,14657.188,W,17599850.6,088.3,220719,000.0,W*59
$GPGGA,132925.233,4855.350,N,00248.750,E,1,12,1.0,0.0,M,0.0,M,,*64
$GPGSA,A,3,01,02,03,04,05,06,07,08,09,10,11,12,1.0,1.0,1.0*30
$GPRMC,132925.233,A,4855.350,N,00248.750,E,4998577.0,192.2,220719,000.0,W*7E
$GPGGA,132926.233,2606.959,N,00206.563,W,1,12,1.0,0.0,M,0.0,M,,*70
$GPGSA,A,3,01,02,03,04,05,06,07,08,09,10,11,12,1.0,1.0,1.0*30
$GPRMC,132926.233,A,2606.959,N,00206.563,W,000.2,000.0,220719,000.0,W*69
$GPGGA,132927.233,2606.959,N,00206.563,W,1,12,1.0,0.0,M,0.0,M,,*71
$GPGSA,A,3,01,02,03,04,05,06,07,08,09,10,11,12,1.0,1.0,1.0*30
$GPRMC,132927.233,A,2606.959,N,00206.563,W,9840273.2,090.2,220719,000.0,W*60
$GPGGA,132928.233,2547.993,N,04852.031,E,1,12,1.0,0.0,M,0.0,M,,*61
$GPGSA,A,3,01,02,03,04,05,06,07,08,09,10,11,12,1.0,1.0,1.0*30
$GPRMC,132928.233,A,2547.993,N,04852.031,E,000.0,000.0,220719,000.0,W*7A
$GPGGA,132929.233,2547.993,N,04852.031,E,1,12,1.0,0.0,M,0.0,M,,*60
$GPGSA,A,3,01,02,03,04,05,06,07,08,09,10,11,12,1.0,1.0,1.0*30
$GPRMC,132929.233,A,2547.993,N,04852.031,E,6913544.6,129.5,220719,000.0,W*7A
$GPGGA,132930.233,0454.950,N,07410.781,E,1,12,1.0,0.0,M,0.0,M,,*63
$GPGSA,A,3,01,02,03,04,05,06,07,08,09,10,11,12,1.0,1.0,1.0*30
$GPRMC,132930.233,A,0454.950,N,07410.781,E,000.0,000.0,220719,000.0,W*78
$GPGGA,132931.233,0454.950,N,07410.781,E,1,12,1.0,0.0,M,0.0,M,,*62
$GPGSA,A,3,01,02,03,04,05,06,07,08,09,10,11,12,1.0,1.0,1.0*30
$GPRMC,132931.233,A,0454.950,N,07410.781,E,19081588.0,119.2,220719,000.0,W*46
$GPGGA,132932.233,4130.515,S,15730.000,E,1,12,1.0,0.0,M,0.0,M,,*7E
$GPGSA,A,3,01,02,03,04,05,06,07,08,09,10,11,12,1.0,1.0,1.0*30
$GPRMC,132932.233,A,4130.515,S,15730.000,E,000.0,000.0,220719,000.0,W*65
$GPGGA,132933.233,4130.515,S,15730.000,E,1,12,1.0,0.0,M,0.0,M,,*7F
$GPGSA,A,3,01,02,03,04,05,06,07,08,09,10,11,12,1.0,1.0,1.0*30
$GPRMC,132933.233,A,4130.515,S,15730.000,E,14720747.1,081.0,220719,000.0,W*58
$GPGGA,132934.233,2741.012,S,24152.500,E,1,12,1.0,0.0,M,0.0,M,,*79
$GPGSA,A,3,01,02,03,04,05,06,07,08,09,10,11,12,1.0,1.0,1.0*30
$GPRMC,132934.233,A,2741.012,S,24152.500,E,202726.8,000.0,220719,000.0,W*59
$GPGGA,132935.233,2644.737,S,24152.500,E,1,12,1.0,0.0,M,0.0,M,,*7C
$GPGSA,A,3,01,02,03,04,05,06,07,08,09,10,11,12,1.0,1.0,1.0*30
$GPRMC,132935.233,A,2644.737,S,24152.500,E,4026264.8,116.2,220719,000.0,W*6B
$GPGGA,132936.233,3601.880,S,26051.563,E,1,12,1.0,0.0,M,0.0,M,,*79
$GPGSA,A,3,01,02,03,04,05,06,07,08,09,10,11,12,1.0,1.0,1.0*30
$GPRMC,132936.233,A,3601.880,S,26051.563,E,000.0,000.0,220719,000.0,W*62
$GPGGA,132937.233,3601.880,S,26051.563,E,1,12,1.0,0.0,M,0.0,M,,*78
$GPGSA,A,3,01,02,03,04,05,06,07,08,09,10,11,12,1.0,1.0,1.0*30
$GPRMC,132937.233,A,3601.880,S,26051.563,E,5952302.9,013.2,220719,000.0,W*60
$GPGGA,132938.233,0906.126,S,26711.250,E,1,12,1.0,0.0,M,0.0,M,,*7D
$GPGSA,A,3,01,02,03,04,05,06,07,08,09,10,11,12,1.0,1.0,1.0*30
$GPRMC,132938.233,A,0906.126,S,26711.250,E,11617908.3,270.0,220719,000.0,W*51
$GPGGA,132939.233,0906.126,S,21241.719,E,1,12,1.0,0.0,M,0.0,M,,*73
$GPGSA,A,3,01,02,03,04,05,06,07,08,09,10,11,12,1.0,1.0,1.0*30
$GPRMC,132939.233,A,0906.126,S,21241.719,E,16689530.6,355.8,220719,000.0,W*53
$GPGGA,132940.233,6800.454,N,20704.219,E,1,12,1.0,0.0,M,0.0,M,,*61
$GPGSA,A,3,01,02,03,04,05,06,07,08,09,10,11,12,1.0,1.0,1.0*30
$GPRMC,132940.233,A,6800.454,N,20704.219,E,2372939.1,349.2,220719,000.0,W*70
$GPGGA,132941.233,7858.283,N,20457.656,E,1,12,1.0,0.0,M,0.0,M,,*6A
$GPGSA,A,3,01,02,03,04,05,06,07,08,09,10,11,12,1.0,1.0,1.0*30
$GPRMC,132941.233,A,7858.283,N,20457.656,E,2372939.1,349.2,220719,000.0,W*7B
